{
  "港北区::明日葉保育園綱島園": {
    "address": "一般社団法人 日本病院管理機構, 錦小路通, 吉野町, 中京区, 京都市, 京都府, 604-8254, 日本",
    "lat": 35.0045535,
    "lng": 135.7586522,
    "map_url": "https://www.google.com/maps/search/?api=1&query=35.0045535,135.7586522",
    "q": "明日葉保育園綱島園 横浜市港北区 日本"
  },
  "港北区::尚花愛児園": {
    "address": "尚花愛児園, 川崎町田線, 大曽根三丁目, 港北区, 横浜市, 神奈川県, 231-0017, 日本",
    "lat": 35.535369,
    "lng": 139.6299657,
    "map_url": "https://www.google.com/maps/search/?api=1&query=35.535369,139.6299657",
    "q": "尚花愛児園 横浜市港北区 日本"
  },
  "港北区::横浜市港北保育園": {
    "address": "横浜市港北保育園, 旧綱島街道, 白幡町, 港北区, 横浜市, 神奈川県, 231-0017, 日本",
    "lat": 35.496176,
    "lng": 139.631452,
    "map_url": "https://www.google.com/maps/search/?api=1&query=35.496176,139.631452",
    "q": "横浜市港北保育園 横浜市港北区 日本"
  },
  "港北区::横浜市南日吉保育園": {
    "address": "横浜市南日吉保育園, 荏田綱島線, 日吉本町四丁目, 港北区, 横浜市, 神奈川県, 231-0017, 日本",
    "lat": 35.545476,
    "lng": 139.634729,
    "map_url": "https://www.google.com/maps/search/?api=1&query=35.545476,139.634729",
    "q": "横浜市南日吉保育園 横浜市港北区 日本"
  },
  "港北区::明日葉保育園大倉山園": {
    "address": "JTB, 不明門通, 北小路町, 真苧屋町, 下京区, 京都市, 京都府, 600-8213, 日本",
    "lat": 34.9873545,
    "lng": 135.7602306,
    "map_url": "https://www.google.com/maps/search/?api=1&query=34.9873545,135.7602306",
    "q": "明日葉保育園大倉山園 横浜市港北区 日本"
  },
  "港北区::さくらんぼ保育園": {
    "address": "さくらんぼ保育園, 日吉中央通り, 日吉本町一丁目, 港北区, 横浜市, 神奈川県, 231-0017, 日本",
    "lat": 35.553934,
    "lng": 139.645418,
    "map_url": "https://www.google.com/maps/search/?api=1&query=35.553934,139.645418",
    "q": "さくらんぼ保育園 横浜市港北区 日本"
  },
  "港北区::アスク日吉本町開善保育園": {
    "address": "アスク日吉本町開善保育園, 赤門坂, 日吉本町二丁目, 港北区, 横浜市, 神奈川県, 231-0017, 日本",
    "lat": 35.5515575,
    "lng": 139.6356741,
    "map_url": "https://www.google.com/maps/search/?api=1&query=35.5515575,139.6356741",
    "q": "アスク日吉本町開善保育園 横浜市港北区 日本"
  },
  "港北区::ペガサス新横浜保育園": {
    "address": "ペガサス新横浜保育園, 新横浜中央通り, 新横浜三丁目, 新横浜二丁目, 港北区, 横浜市, 神奈川県, 231-0017, 日本",
    "lat": 35.5140227,
    "lng": 139.6204427,
    "map_url": "https://www.google.com/maps/search/?api=1&query=35.5140227,139.6204427",
    "q": "ペガサス新横浜保育園 横浜市港北区 日本"
  },
  "港北区::第二福澤保育センター": {
    "address": "第二福沢保育センター, 牛坂, 新横浜三丁目, 篠原町, 港北区, 横浜市, 神奈川県, 231-0017, 日本",
    "lat": 35.505064,
    "lng": 139.621259,
    "map_url": "https://www.google.com/maps/search/?api=1&query=35.505064,139.621259",
    "q": "第二福澤保育センター 横浜市港北区 日本"
  },
  "港北区::アスク日吉本町第二保育園": {
    "address": "アスク日吉本町第二保育園, 赤門坂, 日吉本町二丁目, 港北区, 横浜市, 神奈川県, 231-0017, 日本",
    "lat": 35.551642,
    "lng": 139.6359752,
    "map_url": "https://www.google.com/maps/search/?api=1&query=35.551642,139.6359752",
    "q": "アスク日吉本町第二保育園 横浜市港北区 日本"
  },
  "港北区::大倉山保育園": {
    "address": "NTT西日本 七条別館, 下珠数屋町通, 西玉水町, 下京区, 京都市, 京都府, 600-8505, 日本",
    "lat": 34.990339,
    "lng": 135.762865,
    "map_url": "https://www.google.com/maps/search/?api=1&query=34.990339,135.762865",
    "q": "大倉山保育園 横浜市港北区 日本"
  },
  "港北区::横浜市太尾保育園": {
    "address": "横浜市太尾保育園, 太尾新道, 新横浜三丁目, 大倉山五丁目, 港北区, 横浜市, 神奈川県, 231-0017, 日本",
    "lat": 35.520757,
    "lng": 139.622453,
    "map_url": "https://www.google.com/maps/search/?api=1&query=35.520757,139.622453",
    "q": "横浜市太尾保育園 横浜市港北区 日本"
  },
  "港北区::めぐみ保育園": {
    "address": "めぐみ保育園, 宮内新横浜線, 新吉田東三丁目, 港北区, 横浜市, 神奈川県, 231-0017, 日本",
    "lat": 35.5438125,
    "lng": 139.6161362,
    "map_url": "https://www.google.com/maps/search/?api=1&query=35.5438125,139.6161362",
    "q": "めぐみ保育園 横浜市港北区 日本"
  },
  "港北区::なあな保育園": {
    "address": "なあな保育園, 川崎町田線, 樽町三丁目, 港北区, 横浜市, 神奈川県, 231-0017, 日本",
    "lat": 35.5302772,
    "lng": 139.6427444,
    "map_url": "https://www.google.com/maps/search/?api=1&query=35.5302772,139.6427444",
    "q": "なあな保育園 横浜市港北区 日本"
  },
  "港北区::聖保育園": {
    "address": "聖保育園, 大倉山エルム通り, 大倉山三丁目, 港北区, 横浜市, 神奈川県, 231-0017, 日本",
    "lat": 35.5222993,
    "lng": 139.6271223,
    "map_url": "https://www.google.com/maps/search/?api=1&query=35.5222993,139.6271223",
    "q": "聖保育園 横浜市港北区 日本"
  },
  "港北区::ペガサスベビー保育園": {
    "address": "ペガサスベビー保育園, 環状2号線, 新横浜三丁目, 新横浜一丁目, 港北区, 横浜市, 神奈川県, 231-0017, 日本",
    "lat": 35.505686,
    "lng": 139.612475,
    "map_url": "https://www.google.com/maps/search/?api=1&query=35.505686,139.612475",
    "q": "ペガサスベビー保育園 横浜市港北区 日本"
  },
  "港北区::イルカ保育園": {
    "address": "イルカ保育園, サンロード, 日吉二丁目, 日吉, 港北区, 横浜市, 神奈川県, 223-0061, 日本",
    "lat": 35.5546581,
    "lng": 139.6466423,
    "map_url": "https://www.google.com/maps/search/?api=1&query=35.5546581,139.6466423",
    "q": "イルカ保育園 横浜市港北区 日本"
  },
  "港北区::キッズラボ菊名園": {
    "address": "キッズラボ菊名園, 東京丸子横浜線, 菊名六丁目, 港北区, 横浜市, 神奈川県, 231-0017, 日本",
    "lat": 35.51336,
    "lng": 139.63197,
    "map_url": "https://www.google.com/maps/search/?api=1&query=35.51336,139.63197",
    "q": "キッズラボ菊名園 横浜市港北区 日本"
  },
  "港北区::菊名愛児園": {
    "address": "菊名愛児園, 東京丸子横浜線, 菊名四丁目, 港北区, 横浜市, 神奈川県, 231-0017, 日本",
    "lat": 35.509703,
    "lng": 139.635868,
    "map_url": "https://www.google.com/maps/search/?api=1&query=35.509703,139.635868",
    "q": "菊名愛児園 横浜市港北区 日本"
  },
  "港北区::横浜市菊名保育園": {
    "address": "一般社団法人 日本病院管理機構, 錦小路通, 吉野町, 中京区, 京都市, 京都府, 604-8254, 日本",
    "lat": 35.0045535,
    "lng": 135.7586522,
    "map_url": "https://www.google.com/maps/search/?api=1&query=35.0045535,135.7586522",
    "q": "横浜市菊名保育園 横浜市港北区 日本"
  },
  "港北区::横浜市大曽根保育園": {
    "address": "横浜市大曽根保育園, 東京丸子横浜線, 大曽根一丁目, 港北区, 横浜市, 神奈川県, 231-0017, 日本",
    "lat": 35.527395,
    "lng": 139.630591,
    "map_url": "https://www.google.com/maps/search/?api=1&query=35.527395,139.630591",
    "q": "横浜市大曽根保育園 横浜市港北区 日本"
  },
  "港北区::佐藤保育室": {
    "address": "一般社団法人 日本病院管理機構, 錦小路通, 吉野町, 中京区, 京都市, 京都府, 604-8254, 日本",
    "lat": 35.0045535,
    "lng": 135.7586522,
    "map_url": "https://www.google.com/maps/search/?api=1&query=35.0045535,135.7586522",
    "q": "佐藤保育室 横浜市港北区 日本"
  },
  "fid::1410051014918": {
    "address": "NTT西日本 七条別館, 下珠数屋町通, 西玉水町, 下京区, 京都市, 京都府, 600-8505, 日本",
    "lat": 34.990339,
    "lng": 135.762865,
    "map_url": "https://www.google.com/maps/search/?api=1&query=34.990339,135.762865",
    "q": "日吉保育園 保育園 横浜市港北区 日本"
  },
  "fid::1410051024594": {
    "address": "NTT西日本 七条別館, 下珠数屋町通, 西玉水町, 下京区, 京都市, 京都府, 600-8505, 日本",
    "lat": 34.990339,
    "lng": 135.762865,
    "map_url": "https://www.google.com/maps/search/?api=1&query=34.990339,135.762865",
    "q": "新横浜保育園 保育園 横浜市港北区 日本"
  },
  "fid::1410051017135": {
    "address": "NTT西日本 七条別館, 下珠数屋町通, 西玉水町, 下京区, 京都市, 京都府, 600-8505, 日本",
    "lat": 34.990339,
    "lng": 135.762865,
    "map_url": "https://www.google.com/maps/search/?api=1&query=34.990339,135.762865",
    "q": "新横浜保育園 保育園 横浜市港北区 日本"
  },
  "fid::1410051026003": {
    "address": "大谷保育園, 花屋町通, 門前町, 乾町, 下京区, 京都市, 京都府, 600-8304, 日本",
    "lat": 34.993559,
    "lng": 135.758497,
    "map_url": "https://www.google.com/maps/search/?api=1&query=34.993559,135.758497",
    "q": "保育園日吉 保育園 横浜市港北区 日本"
  },
  "fid::1410051017093": {
    "address": "NTT西日本 七条別館, 下珠数屋町通, 西玉水町, 下京区, 京都市, 京都府, 600-8505, 日本",
    "lat": 34.990339,
    "lng": 135.762865,
    "map_url": "https://www.google.com/maps/search/?api=1&query=34.990339,135.762865",
    "q": "大倉山保育園 保育園 横浜市港北区 日本"
  },
  "fid::1410051015683": {
    "address": "大谷保育園, 花屋町通, 門前町, 乾町, 下京区, 京都市, 京都府, 600-8304, 日本",
    "lat": 34.993559,
    "lng": 135.758497,
    "map_url": "https://www.google.com/maps/search/?api=1&query=34.993559,135.758497",
    "q": "保育園綱島 保育園 横浜市港北区 日本"
  },
  "fid::1410051024198": {
    "address": "一般社団法人 日本病院管理機構, 錦小路通, 吉野町, 中京区, 京都市, 京都府, 604-8254, 日本",
    "lat": 35.0045535,
    "lng": 135.7586522,
    "map_url": "https://www.google.com/maps/search/?api=1&query=35.0045535,135.7586522",
    "q": "菊名園 保育園 横浜市港北区 日本"
  },
  "fid::1410051015675": {
    "address": "一般社団法人 日本病院管理機構, 錦小路通, 吉野町, 中京区, 京都市, 京都府, 604-8254, 日本",
    "lat": 35.0045535,
    "lng": 135.7586522,
    "map_url": "https://www.google.com/maps/search/?api=1&query=35.0045535,135.7586522",
    "q": "日吉園 保育園 横浜市港北区 日本"
  },
  "fid::1410051015667": {
    "address": "NTT西日本 七条別館, 下珠数屋町通, 西玉水町, 下京区, 京都市, 京都府, 600-8505, 日本",
    "lat": 34.990339,
    "lng": 135.762865,
    "map_url": "https://www.google.com/maps/search/?api=1&query=34.990339,135.762865",
    "q": "綱島園 保育園 横浜市港北区 日本"
  },
  "fid::1410051017101": {
    "address": "一般社団法人 日本病院管理機構, 錦小路通, 吉野町, 中京区, 京都市, 京都府, 604-8254, 日本",
    "lat": 35.0045535,
    "lng": 135.7586522,
    "map_url": "https://www.google.com/maps/search/?api=1&query=35.0045535,135.7586522",
    "q": "日吉東保育園 保育園 横浜市港北区 日本"
  },
  "fid::1410051026037": {
    "address": "NTT西日本 七条別館, 下珠数屋町通, 西玉水町, 下京区, 京都市, 京都府, 600-8505, 日本",
    "lat": 34.990339,
    "lng": 135.762865,
    "map_url": "https://www.google.com/maps/search/?api=1&query=34.990339,135.762865",
    "q": "大倉山園 保育園 横浜市港北区 日本"
  },
  "fid::1410051014280": {
    "address": "NTT西日本 七条別館, 下珠数屋町通, 西玉水町, 下京区, 京都市, 京都府, 600-8505, 日本",
    "lat": 34.990339,
    "lng": 135.762865,
    "map_url": "https://www.google.com/maps/search/?api=1&query=34.990339,135.762865",
    "q": "日吉保育園 保育園 横浜市港北区 日本"
  },
  "fid::1410051027043": {
    "address": "日吉五丁目公園, 21, 日吉, 港北区, 横浜市, 神奈川県, 223-0061, 日本",
    "lat": 35.5511185,
    "lng": 139.6557759,
    "map_url": "https://www.google.com/maps/search/?api=1&query=35.5511185,139.6557759",
    "q": "日吉五丁目園 横浜市港北区 日本"
  },
  "fid::1410051027910": {
    "address": "大谷保育園, 花屋町通, 門前町, 乾町, 下京区, 京都市, 京都府, 600-8304, 日本",
    "lat": 34.993559,
    "lng": 135.758497,
    "map_url": "https://www.google.com/maps/search/?api=1&query=34.993559,135.758497",
    "q": "保育園綱島東 保育園 横浜市港北区 日本"
  },
  "fid::1410051015659": {
    "address": "NTT西日本 七条別館, 下珠数屋町通, 西玉水町, 下京区, 京都市, 京都府, 600-8505, 日本",
    "lat": 34.990339,
    "lng": 135.762865,
    "map_url": "https://www.google.com/maps/search/?api=1&query=34.990339,135.762865",
    "q": "下田町園 保育園 横浜市港北区 日本"
  }
}